{"rrsosa":[{"classificationId":"AMB","territoryId":"48","title":"Asociaci&oacute;n ALEGR&Iacute;A","contentUrl_es":"/contenidos/equipamiento/rrsosa_b_2/es_def/index.shtml","address":" San Juli&aacute;n, 2 , 48550 Muskiz Bizkaia","categoryId":"CR2","municipality":"Muskiz","contentUrl_eu":"/contenidos/equipamiento/rrsosa_b_2/eu_def/index.shtml","targetId":"CD3CD6CD7","lng":"-3.1146002","typeId":"TA1","lat":"43.332508"},{"classificationId":"AMB","territoryId":"48","title":"AVIFES","contentUrl_es":"/contenidos/equipamiento/rrsosa_b_3/es_def/index.shtml","address":"Murueta Torre, 4A, 48200 Durango Bizkaia","categoryId":"CR2","municipality":"Durango","contentUrl_eu":"/contenidos/equipamiento/rrsosa_b_3/eu_def/index.shtml","targetId":"CD3CD6CD0","lng":"-2.632604","typeId":"TA1","lat":"43.172142"},{"classificationId":"AMB","territoryId":"48","title":"AVIFES","contentUrl_es":"/contenidos/equipamiento/rrsosa_b_4/es_def/index.shtml","address":"C/ Iparraguirre, 54, 48300 Gernika-Lumo Bizkaia","categoryId":"CR2","municipality":"Gernika-Lumo","contentUrl_eu":"/contenidos/equipamiento/rrsosa_b_4/eu_def/index.shtml","targetId":"CD3CD6CD0","lng":"-2.6800349","typeId":"TA1","lat":"43.3076"},{"classificationId":"AMB","territoryId":"48","title":"AVIFES","contentUrl_es":"/contenidos/equipamiento/rrsosa_b_5/es_def/index.shtml","address":"C/ Correos, 20, 48920 Portugalete Bizkaia","categoryId":"CR2","municipality":"Portugalete","contentUrl_eu":"/contenidos/equipamiento/rrsosa_b_5/eu_def/index.shtml","targetId":"CD3CD6CD0","lng":"-3.0209978","typeId":"TA1","lat":"43.320496"},{"classificationId":"AMB","territoryId":"48","title":"AVIFES ","contentUrl_es":"/contenidos/equipamiento/rrsosa_b_6/es_def/index.shtml","address":" Sarrikue, 48007 Bilbao Bizkaia","categoryId":"CR1","municipality":"Bilbao","contentUrl_eu":"/contenidos/equipamiento/rrsosa_b_6/eu_def/index.shtml","targetId":"CD3CD6CD0","lng":"-2.9349852","typeId":"TA1","lat":"43.263012"},{"classificationId":"AMB","territoryId":"48","title":"AVIFES ","contentUrl_es":"/contenidos/equipamiento/rrsosa_b_7/es_def/index.shtml","address":"C/ General Salazar, 7, 48012 Bilbao Bizkaia","categoryId":"CR1","municipality":"Bilbao","contentUrl_eu":"/contenidos/equipamiento/rrsosa_b_7/eu_def/index.shtml","targetId":"CD3CD6CD0","lng":"-2.9415407","typeId":"TA1","lat":"43.255875"},{"classificationId":"AMB","territoryId":"48","title":"AVIFES","contentUrl_es":"/contenidos/equipamiento/rrsosa_b_8/es_def/index.shtml","address":"C/ Sabino Arana, 16, 48980 Santurtzi Bizkaia","categoryId":"CR1","municipality":"Santurtzi","contentUrl_eu":"/contenidos/equipamiento/rrsosa_b_8/eu_def/index.shtml","targetId":"CD3CD6CD0","lng":"-3.0347059","typeId":"TA1","lat":"43.330566"},{"classificationId":"AMB","title":"AVIFES","contentUrl_es":"/contenidos/equipamiento/rrsosa_b_9/es_def/index.shtml","categoryId":"CR1","municipality":"","contentUrl_eu":"/contenidos/equipamiento/rrsosa_b_9/eu_def/index.shtml","targetId":"CD3CD6CD0","lng":"","typeId":"TA1","lat":""},{"classificationId":"AMB","territoryId":"48","title":"Centro de d&iacute;a ARGIA","contentUrl_es":"/contenidos/equipamiento/rrsosa_b_10/es_def/index.shtml","address":"C/ Trinidad, 11, 48993 Getxo Bizkaia","categoryId":"CR1","municipality":"Getxo","contentUrl_eu":"/contenidos/equipamiento/rrsosa_b_10/eu_def/index.shtml","targetId":"CD3CD6CD0","lng":"-3.012062","typeId":"TA1","lat":"43.35325"},{"classificationId":"AMB","territoryId":"48","title":"Centro de d&iacute;a Bizitegi - Irumineta","contentUrl_es":"/contenidos/equipamiento/rrsosa_b_11/es_def/index.shtml","address":"C/ Irumineta, 16, 48004 Bilbao Bizkaia","categoryId":"CR1","municipality":"Bilbao","contentUrl_eu":"/contenidos/equipamiento/rrsosa_b_11/eu_def/index.shtml","targetId":"CD3CD4CD6","lng":"-2.8962564","typeId":"TA1","lat":"43.256516"},{"classificationId":"AMB","territoryId":"48","title":"Centro de d&iacute;a Bizitegi - Zizeruene","contentUrl_es":"/contenidos/equipamiento/rrsosa_b_12/es_def/index.shtml","address":"C/ Zizeruena, 6, 48004 Bilbao Bizkaia","categoryId":"CR1","municipality":"Bilbao","contentUrl_eu":"/contenidos/equipamiento/rrsosa_b_12/eu_def/index.shtml","targetId":"CD3CD4CD6","lng":"-2.9004064","typeId":"TA1","lat":"43.260548"},{"classificationId":"AMB","territoryId":"48","title":"Centro de d&iacute;a de Rehabilitaci&oacute;n Bizitegi","contentUrl_es":"/contenidos/equipamiento/rrsosa_b_13/es_def/index.shtml","address":"C/ Langaran, 22, 48004 Bilbao Bizkaia","categoryId":"CR1","municipality":"Bilbao","contentUrl_eu":"/contenidos/equipamiento/rrsosa_b_13/eu_def/index.shtml","targetId":"CD3CD4CD6","lng":"-2.898014","typeId":"TA1","lat":"43.258728"},{"classificationId":"AMB","territoryId":"48","title":"ERAGINTZA (CO Cableado)","contentUrl_es":"/contenidos/equipamiento/rrsosa_b_14/es_def/index.shtml","address":"C/ Etxerre, 16, 48970 Basauri Bizkaia","categoryId":"CR2","municipality":"Basauri","contentUrl_eu":"/contenidos/equipamiento/rrsosa_b_14/eu_def/index.shtml","targetId":"CD3CD6CD0","lng":"-2.8713698","typeId":"TA2","lat":"43.2296"},{"classificationId":"AMB","territoryId":"48","title":"ERAGINTZA (CO Encuadernaci&oacute;n)","contentUrl_es":"/contenidos/equipamiento/rrsosa_b_15/es_def/index.shtml","address":"Carretera Bilbao-Balmaseda, Km. 9, 48810 Alonsotegi Bizkaia","categoryId":"CR2","municipality":"Alonsotegi","contentUrl_eu":"/contenidos/equipamiento/rrsosa_b_15/eu_def/index.shtml","targetId":"CD3CD6CD0","lng":"-2.9894319","typeId":"TA2","lat":"43.24524"},{"classificationId":"AMB","territoryId":"48","title":"ERAGINTZA (CO de Jardiner&iacute;a)","contentUrl_es":"/contenidos/equipamiento/rrsosa_b_16/es_def/index.shtml","address":"C/ Etxerre, 16, 48970 Basauri Bizkaia","categoryId":"CR2","municipality":"Basauri","contentUrl_eu":"/contenidos/equipamiento/rrsosa_b_16/eu_def/index.shtml","targetId":"CD3CD6CD0","lng":"-2.8713698","typeId":"TA2","lat":"43.2296"},{"classificationId":"AMB","territoryId":"48","title":"ERAGINTZA (CO Lavander&iacute;a)","contentUrl_es":"/contenidos/equipamiento/rrsosa_b_17/es_def/index.shtml","address":"C/ Etxerre, 16, 48970 Basauri Bizkaia","categoryId":"CR2","municipality":"Basauri","contentUrl_eu":"/contenidos/equipamiento/rrsosa_b_17/eu_def/index.shtml","targetId":"CD3CD6CD0","lng":"-2.8713698","typeId":"TA2","lat":"43.2296"},{"classificationId":"AMB","territoryId":"48","title":"ERAGINTZA (CO de Encintado)","contentUrl_es":"/contenidos/equipamiento/rrsosa_b_18/es_def/index.shtml","address":"C/ Iru&ntilde;a, 17, 48014 Bilbao Bizkaia","categoryId":"CR2","municipality":"Bilbao","contentUrl_eu":"/contenidos/equipamiento/rrsosa_b_18/eu_def/index.shtml","targetId":"CD3CD6CD0","lng":"-2.9496694","typeId":"TA2","lat":"43.270638"},{"classificationId":"AMB","territoryId":"48","title":"ERAGINTZA (LAVANINDU S.L.)","contentUrl_es":"/contenidos/equipamiento/rrsosa_b_19/es_def/index.shtml","address":"Pol&iacute;gono industrial Martiartu, 18 B, 48480 Arrigorriaga Bizkaia","categoryId":"CR2","municipality":"Arrigorriaga","contentUrl_eu":"/contenidos/equipamiento/rrsosa_b_19/eu_def/index.shtml","targetId":"CD3CD6CD0","lng":"-2.897701","typeId":"TA2","lat":"43.18355"},{"classificationId":"AMB","territoryId":"48","title":"ETORKINTZA","contentUrl_es":"/contenidos/equipamiento/rrsosa_b_20/es_def/index.shtml","address":"C/ Jon Arrospide, 11, 48014 Bilbao Bizkaia","categoryId":"CR2","municipality":"Bilbao","contentUrl_eu":"/contenidos/equipamiento/rrsosa_b_20/eu_def/index.shtml","targetId":"CD1CD0CD0","lng":"-2.9507675","typeId":"TA1","lat":"43.26836"},{"classificationId":"AMB","territoryId":"48","title":"IFAS CAD Bekoetxe ","contentUrl_es":"/contenidos/equipamiento/rrsosa_b_21/es_def/index.shtml","address":"C/ Doctor Ornilla, 1B, 48004 Bilbao Bizkaia","categoryId":"CR2","municipality":"Bilbao","contentUrl_eu":"/contenidos/equipamiento/rrsosa_b_21/eu_def/index.shtml","targetId":"CD3CD0CD0","lng":"-2.9040346","typeId":"TA1","lat":"43.257236"},{"classificationId":"AMB","territoryId":"48","title":"CAD Lurgorri","contentUrl_es":"/contenidos/equipamiento/rrsosa_b_22/es_def/index.shtml","address":"C/ Lurgorri, 1, 48300 Gernika-Lumo Bizkaia","categoryId":"CR2","municipality":"Gernika-Lumo","contentUrl_eu":"/contenidos/equipamiento/rrsosa_b_22/eu_def/index.shtml","targetId":"CD3CD0CD0","lng":"-2.6823094","typeId":"TA1","lat":"43.305805"},{"classificationId":"AMB","territoryId":"48","title":"FEKOOR,CAD Arbolarte ","contentUrl_es":"/contenidos/equipamiento/rrsosa_b_23/es_def/index.shtml","address":"C/ Blas de Otero, 63, 48014 Bilbao Bizkaia","categoryId":"CR2","municipality":"Bilbao","contentUrl_eu":"/contenidos/equipamiento/rrsosa_b_23/eu_def/index.shtml","targetId":"CD3CD0CD0","lng":"-2.953036","typeId":"TA1","lat":"43.26984"},{"classificationId":"AMB","territoryId":"48","title":"GIZAKIA","contentUrl_es":"/contenidos/equipamiento/rrsosa_b_24/es_def/index.shtml","address":"Avenida Madariaga, 63  , 48014 Bilbao Bizkaia","categoryId":"CR2","municipality":"Bilbao","contentUrl_eu":"/contenidos/equipamiento/rrsosa_b_24/eu_def/index.shtml","targetId":"CD1CD0CD0","lng":"-2.9540255","typeId":"TA1","lat":"43.270634"},{"classificationId":"AMB","territoryId":"48","title":"AUZOLAN","contentUrl_es":"/contenidos/equipamiento/rrsosa_b_25/es_def/index.shtml","address":"C/ Naja, 5, 48003 Bilbao Bizkaia","categoryId":"CR1","municipality":"Bilbao","contentUrl_eu":"/contenidos/equipamiento/rrsosa_b_25/eu_def/index.shtml","targetId":"CD3CD4CD6","lng":"-2.927695","typeId":"TA3","lat":"43.257896"},{"classificationId":"AMB","territoryId":"48","title":"REKALDE","contentUrl_es":"/contenidos/equipamiento/rrsosa_b_26/es_def/index.shtml","address":"C/ Camilo Villabaso, 24, 48002 Bilbao Bizkaia","categoryId":"CR1","municipality":"Bilbao","contentUrl_eu":"/contenidos/equipamiento/rrsosa_b_26/eu_def/index.shtml","targetId":"CD1CD4CD0","lng":"-2.947795","typeId":"TA3","lat":"43.25183"},{"classificationId":"AMB","territoryId":"48","title":"SAN INAZIO","contentUrl_es":"/contenidos/equipamiento/rrsosa_b_27/es_def/index.shtml","address":"Plaza Aoiz, 48015 Bilbao Bizkaia","categoryId":"CR1","municipality":"Bilbao","contentUrl_eu":"/contenidos/equipamiento/rrsosa_b_27/eu_def/index.shtml","targetId":"CD1CD4CD6","lng":"-2.9605348","typeId":"TA3","lat":"43.27823"},{"classificationId":"RES","territoryId":"20","title":"AITA MENNI HOSPITAL CASA DE HH HOSPITALARIAS. UNIDAD RESIDENCIAL DE DISCAPACIDAD PS&Iacute;QUICA","contentUrl_es":"/contenidos/equipamiento/rrsosa_b_28/es_def/index.shtml","address":"Gesalibar Auzoa, 15, 20509 Arrasate/Mondrag&oacute;n Gipuzkoa","categoryId":"CR2","municipality":"Arrasate/Mondrag&oacute;n","contentUrl_eu":"/contenidos/equipamiento/rrsosa_b_28/eu_def/index.shtml","targetId":"CD3CD6CD0","lng":"-2.52997","typeId":"TR10","lat":"43.06226"},{"classificationId":"RES","territoryId":"","title":"Centro PRISMA","contentUrl_es":"/contenidos/equipamiento/rrsosa_b_29/es_def/index.shtml","categoryId":"CR2","municipality":"San Juan de Mozarrifar","contentUrl_eu":"/contenidos/equipamiento/rrsosa_b_29/eu_def/index.shtml","targetId":"CD6CD0CD0","lng":"","typeId":"TR10","lat":""},{"classificationId":"RES","territoryId":"48","title":"Sanatorio residencial San Ignacio de Loiola","contentUrl_es":"/contenidos/equipamiento/rrsosa_b_30/es_def/index.shtml","address":" Peruri, 4 , 48940 Leioa Bizkaia","categoryId":"CR2","municipality":"Leioa","contentUrl_eu":"/contenidos/equipamiento/rrsosa_b_30/eu_def/index.shtml","targetId":"CD6CD0CD0","lng":"-3.00447","typeId":"TR2","lat":"43.32782"},{"classificationId":"AMB","territoryId":"48","title":"BLISTER","contentUrl_es":"/contenidos/equipamiento/rrsosa_b_31/es_def/index.shtml","categoryId":"CR3","municipality":"","contentUrl_eu":"/contenidos/equipamiento/rrsosa_b_31/eu_def/index.shtml","targetId":"CD2CD3CD0","lng":"","typeId":"TA5","lat":""},{"classificationId":"AMB","territoryId":"48","title":"Servicio de ayuda a domicilio (SAD)","contentUrl_es":"/contenidos/equipamiento/rrsosa_b_32/es_def/index.shtml","categoryId":"CR3","municipality":"","contentUrl_eu":"/contenidos/equipamiento/rrsosa_b_32/eu_def/index.shtml","targetId":"CD2CD4CD0","lng":"","typeId":"TA5","lat":""},{"classificationId":"AMB","territoryId":"48","title":"ON EGIN","contentUrl_es":"/contenidos/equipamiento/rrsosa_b_33/es_def/index.shtml","address":"C/ Marqu&eacute;s de Valdespina, 1, 48260 Ermua Bizkaia","categoryId":"CR3","municipality":"Ermua","contentUrl_eu":"/contenidos/equipamiento/rrsosa_b_33/eu_def/index.shtml","targetId":"CD2CD3CD0","lng":"-2.5021565","typeId":"TA5","lat":"43.186012"},{"classificationId":"AMB","territoryId":"48","title":"ZAINDUZ","contentUrl_es":"/contenidos/equipamiento/rrsosa_b_34/es_def/index.shtml","address":"C/ Marqu&eacute;s de Valdespina, 1, 48260 Ermua Bizkaia","categoryId":"CR3","municipality":"Ermua","contentUrl_eu":"/contenidos/equipamiento/rrsosa_b_34/eu_def/index.shtml","targetId":"CD2CD0CD0","lng":"-2.5021565","typeId":"TA10","lat":"43.186012"},{"classificationId":"AMB","territoryId":"48","title":"ZAINDUZ","contentUrl_es":"/contenidos/equipamiento/rrsosa_b_35/es_def/index.shtml","address":"C/ Gatzarrine, 4, 48600 Sopela Bizkaia","categoryId":"CR1","municipality":"Sopela","contentUrl_eu":"/contenidos/equipamiento/rrsosa_b_35/eu_def/index.shtml","targetId":"CD2CD0CD0","lng":"-2.9899693","typeId":"TA10","lat":"43.37636"},{"classificationId":"AMB","territoryId":"48","title":"Comida a domicilio","contentUrl_es":"/contenidos/equipamiento/rrsosa_b_36/es_def/index.shtml","address":"C/ Aita Elorriaga, 4, 48100 Mungia Bizkaia","categoryId":"CR3","municipality":"Mungia","contentUrl_eu":"/contenidos/equipamiento/rrsosa_b_36/eu_def/index.shtml","targetId":"CD2CD0CD0","lng":"-2.8457623","typeId":"TA5","lat":"43.353428"},{"classificationId":"AMB","territoryId":"48","title":"Jagoten programa","contentUrl_es":"/contenidos/equipamiento/rrsosa_b_37/es_def/index.shtml","address":"C/ Aita Elorriaga, 4, 48100 Mungia Bizkaia","categoryId":"CR3","municipality":"Mungia","contentUrl_eu":"/contenidos/equipamiento/rrsosa_b_37/eu_def/index.shtml","targetId":"CD2CD0CD0","lng":"-2.8457623","typeId":"TA10","lat":"43.353428"},{"classificationId":"AMB","territoryId":"48","title":"Comida a domicilio ","contentUrl_es":"/contenidos/equipamiento/rrsosa_b_39/es_def/index.shtml","address":"Urgoiti, 57, 48480 Arrigorriaga Bizkaia","categoryId":"CR3","municipality":"Arrigorriaga","contentUrl_eu":"/contenidos/equipamiento/rrsosa_b_39/eu_def/index.shtml","targetId":"CD2CD0CD0","lng":"-2.8879442","typeId":"TA5","lat":"43.20636"},{"classificationId":"AMB","territoryId":"48","title":"Comida a domicilio ","contentUrl_es":"/contenidos/equipamiento/rrsosa_b_42/es_def/index.shtml","address":"C/ Iturritza, 51, 48240 Berriz Bizkaia","categoryId":"CR3","municipality":"Berriz","contentUrl_eu":"/contenidos/equipamiento/rrsosa_b_42/eu_def/index.shtml","targetId":"CD2CD0CD0","lng":"-2.5775428","typeId":"TA5","lat":"43.174847"},{"classificationId":"AMB","territoryId":"48","title":"GIZAKIA","contentUrl_es":"/contenidos/equipamiento/rrsosa_b_50/es_def/index.shtml","address":"C/ Bail&eacute;n, 1, 48003 Bilbao Bizkaia","categoryId":"CR2","municipality":"Bilbao","contentUrl_eu":"/contenidos/equipamiento/rrsosa_b_50/eu_def/index.shtml","targetId":"CD1CD0CD0","lng":"-2.9263296","typeId":"TA4","lat":"43.259617"},{"classificationId":"AMB","territoryId":"48","title":"APNABI","contentUrl_es":"/contenidos/equipamiento/rrsosa_b_51/es_def/index.shtml","address":"C/ Navarro Villoslada s/n, 48015 Bilbao Bizkaia","categoryId":"CR2","municipality":"Bilbao","contentUrl_eu":"/contenidos/equipamiento/rrsosa_b_51/eu_def/index.shtml","targetId":"CD3CD6CD0","lng":"-2.9596667","typeId":"TA6","lat":"43.277344"},{"classificationId":"RES","territoryId":"48","title":"ETORKINTZA","contentUrl_es":"/contenidos/equipamiento/rrsosa_b_52/es_def/index.shtml","address":" Santa Ana, 15, 48315 Kortezubi Bizkaia","categoryId":"CR2","municipality":"Kortezubi","contentUrl_eu":"/contenidos/equipamiento/rrsosa_b_52/eu_def/index.shtml","targetId":"CD1CD0CD0","lng":"-2.6427298","typeId":"TR4","lat":"43.33676"},{"classificationId":"RES","territoryId":"48","title":"GIZAKIA","contentUrl_es":"/contenidos/equipamiento/rrsosa_b_53/es_def/index.shtml","address":" Zubiete, 59-61, 48192 Gordexola Bizkaia","categoryId":"CR2","municipality":"Gordexola","contentUrl_eu":"/contenidos/equipamiento/rrsosa_b_53/eu_def/index.shtml","targetId":"CD1CD0CD0","lng":"-3.0617688","typeId":"TR4","lat":"43.185787"},{"classificationId":"RES","territoryId":"48","title":"Hogar IZARRA","contentUrl_es":"/contenidos/equipamiento/rrsosa_b_54/es_def/index.shtml","address":"C/ Zizeruena, 31, 48004 Bilbao Bizkaia","categoryId":"CR2","municipality":"Bilbao","contentUrl_eu":"/contenidos/equipamiento/rrsosa_b_54/eu_def/index.shtml","targetId":"CD6CD0CD0","lng":"-2.898894","typeId":"TR4","lat":"43.261776"},{"classificationId":"RES","territoryId":"48","title":"ATSEDENA","contentUrl_es":"/contenidos/equipamiento/rrsosa_b_55/es_def/index.shtml","address":"Estrada San Agust&iacute;n, 6, 48007 Bilbao Bizkaia","categoryId":"CR2","municipality":"Bilbao","contentUrl_eu":"/contenidos/equipamiento/rrsosa_b_55/eu_def/index.shtml","targetId":"CD4CD0CD0","lng":"-2.92288","typeId":"TR5","lat":"43.266"},{"classificationId":"RES","territoryId":"48","title":"AURRERANTZ","contentUrl_es":"/contenidos/equipamiento/rrsosa_b_56/es_def/index.shtml","address":"C/ Doctor D&iacute;az Emparanza, 43, 48002 Bilbao Bizkaia","categoryId":"CR1","municipality":"Bilbao","contentUrl_eu":"/contenidos/equipamiento/rrsosa_b_56/eu_def/index.shtml","targetId":"CD2CD4CD0","lng":"-2.948269","typeId":"TR5","lat":"43.255203"},{"classificationId":"RES","territoryId":"48","title":"AURRERANTZ","contentUrl_es":"/contenidos/equipamiento/rrsosa_b_57/es_def/index.shtml","address":"C/ Banco Espa&ntilde;a , 48005 Bilbao Bizkaia","categoryId":"CR2","municipality":"Bilbao","contentUrl_eu":"/contenidos/equipamiento/rrsosa_b_57/eu_def/index.shtml","targetId":"CD2CD0CD0","lng":"-2.922954","typeId":"TR5","lat":"43.257854"},{"classificationId":"RES","territoryId":"48","title":"Unidades residenciales sociosanitarias","contentUrl_es":"/contenidos/equipamiento/rrsosa_b_58/es_def/index.shtml","address":" San Miguel s/n, 48340 Amorebieta-Etxano Bizkaia","categoryId":"CR1","municipality":"Amorebieta-Etxano","contentUrl_eu":"/contenidos/equipamiento/rrsosa_b_58/eu_def/index.shtml","targetId":"CD2CD0CD0","lng":"-2.698293","typeId":"TR5","lat":"43.204205"},{"classificationId":"RES","territoryId":"48","title":"Unidades residenciales sociosanitarias","contentUrl_es":"/contenidos/equipamiento/rrsosa_b_59/es_def/index.shtml","address":"C/ Doctor Ornilla, 1B, 48004 Bilbao Bizkaia","categoryId":"CR1","municipality":"Bilbao","contentUrl_eu":"/contenidos/equipamiento/rrsosa_b_59/eu_def/index.shtml","targetId":"CD2CD0CD0","lng":"-2.9040346","typeId":"TR5","lat":"43.257236"},{"classificationId":"RES","territoryId":"48","title":"Unidades residenciales sociosanitarias","contentUrl_es":"/contenidos/equipamiento/rrsosa_b_60/es_def/index.shtml","address":"Grupo La Florida, 48920 Portugalete Bizkaia","categoryId":"CR1","municipality":"Portugalete","contentUrl_eu":"/contenidos/equipamiento/rrsosa_b_60/eu_def/index.shtml","targetId":"CD2CD0CD0","lng":"-3.0243979","typeId":"TR5","lat":"43.318165"},{"classificationId":"RES","territoryId":"48","title":"HONTZA","contentUrl_es":"/contenidos/equipamiento/rrsosa_b_61/es_def/index.shtml","address":"C/ Ribera, 24, 48005 Bilbao Bizkaia","categoryId":"CR1","municipality":"Bilbao","contentUrl_eu":"/contenidos/equipamiento/rrsosa_b_61/eu_def/index.shtml","targetId":"CD1CD4CD0","lng":"-2.9232028","typeId":"TR10","lat":"43.255337"},{"classificationId":"RES","territoryId":"48","title":"Asociaci&oacute;n ALEGR&Iacute;A","contentUrl_es":"/contenidos/equipamiento/rrsosa_b_62/es_def/index.shtml","address":" Cendeja, 25, 48550 Muskiz Bizkaia","categoryId":"CR2","municipality":"Muskiz","contentUrl_eu":"/contenidos/equipamiento/rrsosa_b_62/eu_def/index.shtml","targetId":"CD3CD6CD0","lng":"-3.1190822","typeId":"TR2","lat":"43.32161"},{"classificationId":"RES","territoryId":"48","title":"Asociaci&oacute;n ALEGR&Iacute;A","contentUrl_es":"/contenidos/equipamiento/rrsosa_b_63/es_def/index.shtml","address":" San Juli&aacute;n, 23, 48550 Muskiz Bizkaia","categoryId":"CR2","municipality":"Muskiz","contentUrl_eu":"/contenidos/equipamiento/rrsosa_b_63/eu_def/index.shtml","targetId":"CD3CD6CD0","lng":"-3.1120193","typeId":"TR3","lat":"43.333515"},{"classificationId":"RES","territoryId":"48","title":"OIZPE EGOITZA","contentUrl_es":"/contenidos/equipamiento/rrsosa_b_64/es_def/index.shtml","address":"C/ Olabarri, 8, 48381 Munitibar-Arbatzegi Gerrikaitz Bizkaia","categoryId":"CR1","municipality":"Munitibar-Arbatzegi Gerrikaitz","contentUrl_eu":"/contenidos/equipamiento/rrsosa_b_64/eu_def/index.shtml","targetId":"CD3CD6CD0","lng":"-2.59597","typeId":"TR2","lat":"43.26973"},{"classificationId":"RES","territoryId":"48","title":"Residencia Bizitegi - IRUMINETXE","contentUrl_es":"/contenidos/equipamiento/rrsosa_b_65/es_def/index.shtml","address":"C/ Irumineta, 28, 48004 Bilbao Bizkaia","categoryId":"CR1","municipality":"Bilbao","contentUrl_eu":"/contenidos/equipamiento/rrsosa_b_65/eu_def/index.shtml","targetId":"CD3CD4CD6","lng":"-2.89507","typeId":"TR2","lat":"43.257195"},{"classificationId":"RES","territoryId":"48","title":"Residencia ZURIMENDI (ARGIA)","contentUrl_es":"/contenidos/equipamiento/rrsosa_b_66/es_def/index.shtml","address":" San Pedro s/n, 48191 Galdames Bizkaia","categoryId":"CR1","municipality":"Galdames","contentUrl_eu":"/contenidos/equipamiento/rrsosa_b_66/eu_def/index.shtml","targetId":"CD3CD6CD0","lng":"-3.0983286","typeId":"TR2","lat":"43.25322"},{"classificationId":"RES","territoryId":"48","title":"ZUBIETXE (Anboto)","contentUrl_es":"/contenidos/equipamiento/rrsosa_b_67/es_def/index.shtml","address":"Avenida Zumalac&aacute;rregui, 30, 48006 Bilbao Bizkaia","categoryId":"CR2","municipality":"Bilbao","contentUrl_eu":"/contenidos/equipamiento/rrsosa_b_67/eu_def/index.shtml","targetId":"CD3CD4CD6","lng":"-2.915272","typeId":"TR2","lat":"43.261047"},{"classificationId":"RES","territoryId":"48","title":"ZUBIETXE (Santutxu)","contentUrl_es":"/contenidos/equipamiento/rrsosa_b_68/es_def/index.shtml","address":"C/ Pablo Zamarripa, 10, 48006 Bilbao Bizkaia","categoryId":"CR2","municipality":"Bilbao","contentUrl_eu":"/contenidos/equipamiento/rrsosa_b_68/eu_def/index.shtml","targetId":"CD3CD4CD6","lng":"-2.9126103","typeId":"TR2","lat":"43.256187"},{"classificationId":"RES","territoryId":"48","title":"ZUBIETXE (Zumalakarregi)","contentUrl_es":"/contenidos/equipamiento/rrsosa_b_69/es_def/index.shtml","address":"Avenida Zumalac&aacute;rregui, 38, 48006 Bilbao Bizkaia","categoryId":"CR2","municipality":"Bilbao","contentUrl_eu":"/contenidos/equipamiento/rrsosa_b_69/eu_def/index.shtml","targetId":"CD3CD4CD6","lng":"-2.9149704","typeId":"TR2","lat":"43.26055"},{"classificationId":"RES","territoryId":"48","title":"BEGO&Ntilde;ALDE (ARGIA)","contentUrl_es":"/contenidos/equipamiento/rrsosa_b_70/es_def/index.shtml","address":"Bego&ntilde;alde, 5, 48007 Bilbao Bizkaia","categoryId":"CR1","municipality":"Bilbao","contentUrl_eu":"/contenidos/equipamiento/rrsosa_b_70/eu_def/index.shtml","targetId":"CD3CD6CD0","lng":"-2.9139314","typeId":"TR2","lat":"43.261875"},{"classificationId":"RES","territoryId":"","title":"HERMANDAD DE SAN JUAN DE DIOS - SANATORIO  MAR&Iacute;TIMO","contentUrl_es":"/contenidos/equipamiento/rrsosa_b_71/es_def/index.shtml","categoryId":"CR2","municipality":"Gij&oacute;n","contentUrl_eu":"/contenidos/equipamiento/rrsosa_b_71/eu_def/index.shtml","targetId":"CD3CD6CD0","lng":"","typeId":"TR10","lat":""},{"classificationId":"RES","territoryId":"","title":"COLEGIO NUESTRA SRA. DE F&Aacute;TIMA DON ORIONE HIJOS DE LA DIVINA PROVIDENCIA","contentUrl_es":"/contenidos/equipamiento/rrsosa_b_72/es_def/index.shtml","categoryId":"CR2","municipality":"Llanes","contentUrl_eu":"/contenidos/equipamiento/rrsosa_b_72/eu_def/index.shtml","targetId":"CD3CD6CD0","lng":"","typeId":"TR10","lat":""},{"classificationId":"RES","territoryId":"","title":"RESIDENCIA LOS ROBLES","contentUrl_es":"/contenidos/equipamiento/rrsosa_b_73/es_def/index.shtml","categoryId":"CR2","municipality":"Villasante de Montija","contentUrl_eu":"/contenidos/equipamiento/rrsosa_b_73/eu_def/index.shtml","targetId":"CD3CD6CD0","lng":"","typeId":"TR10","lat":""},{"classificationId":"RES","territoryId":"","title":"COMPLEJO HOSPITALARIO SAN LUIS HH. HOSPITALARIAS DEL SAGRADO CORAZ&Oacute;N DE JES&Uacute;S","contentUrl_es":"/contenidos/equipamiento/rrsosa_b_74/es_def/index.shtml","categoryId":"CR2","municipality":"Palencia","contentUrl_eu":"/contenidos/equipamiento/rrsosa_b_74/eu_def/index.shtml","targetId":"CD3CD6CD0","lng":"","typeId":"TR10","lat":""},{"classificationId":"RES","territoryId":"","title":"HERMANAS HOSPITALARIAS DEL SAGRADO CORAZ&Oacute;N DE JES&Uacute;S. RESIDENCIA BENITO MENNI","contentUrl_es":"/contenidos/equipamiento/rrsosa_b_75/es_def/index.shtml","categoryId":"CR2","municipality":"Elizondo","contentUrl_eu":"/contenidos/equipamiento/rrsosa_b_75/eu_def/index.shtml","targetId":"CD3CD6CD0","lng":"","typeId":"TR10","lat":""},{"classificationId":"RES","territoryId":"","title":"CENTRO ASISTENCIAL S.JUAN DE DIOS","contentUrl_es":"/contenidos/equipamiento/rrsosa_b_76/es_def/index.shtml","categoryId":"CR2","municipality":"Palencia","contentUrl_eu":"/contenidos/equipamiento/rrsosa_b_76/eu_def/index.shtml","targetId":"CD3CD6CD0","lng":"","typeId":"TR10","lat":""},{"classificationId":"RES","territoryId":"","title":"OBRA BEN&Eacute;FICA SAN MART&Iacute;N","contentUrl_es":"/contenidos/equipamiento/rrsosa_b_77/es_def/index.shtml","categoryId":"CR2","municipality":"Santander","contentUrl_eu":"/contenidos/equipamiento/rrsosa_b_77/eu_def/index.shtml","targetId":"CD3CD6CD0","lng":"","typeId":"TR10","lat":""},{"classificationId":"RES","territoryId":"","title":"INSTITUTO M&Eacute;DICO PEDAG&Oacute;GICO-HERMANOS DE SAN JUAN DE DIOS","contentUrl_es":"/contenidos/equipamiento/rrsosa_b_78/es_def/index.shtml","categoryId":"CR2","municipality":"Valladolid","contentUrl_eu":"/contenidos/equipamiento/rrsosa_b_78/eu_def/index.shtml","targetId":"CD3CD6CD0","lng":"","typeId":"TR10","lat":""},{"classificationId":"RES","territoryId":"48","title":"CENTRO ASISTENCIAL URDU&Ntilde;A. IFAS","contentUrl_es":"/contenidos/equipamiento/rrsosa_b_79/es_def/index.shtml","address":"Paseo del Prado  12, 48460 Urdu&ntilde;a/Ordu&ntilde;a Bizkaia","categoryId":"CR2","municipality":"Urdu&ntilde;a/Ordu&ntilde;a","contentUrl_eu":"/contenidos/equipamiento/rrsosa_b_79/eu_def/index.shtml","targetId":"CD3CD0CD0","lng":"-3.0061214","typeId":"TR1","lat":"43.01092"},{"classificationId":"RES","territoryId":"48","title":"CENTRO ASISTENCIAL BIRJINETXE. IFAS","contentUrl_es":"/contenidos/equipamiento/rrsosa_b_80/es_def/index.shtml","address":"C/ Doctor Ornilla, 1B, 48004 Bilbao Bizkaia","categoryId":"CR2","municipality":"Bilbao","contentUrl_eu":"/contenidos/equipamiento/rrsosa_b_80/eu_def/index.shtml","targetId":"CD3CD0CD0","lng":"-2.9040346","typeId":"TR1","lat":"43.257236"},{"classificationId":"RES","territoryId":"48","title":"HOGAR CL&Iacute;NICA SAN JUAN DE DIOS (SANTURTZI)","contentUrl_es":"/contenidos/equipamiento/rrsosa_b_81/es_def/index.shtml","address":"Av. de Crist&oacute;bal de Murrieta, 70, 48980 Santurtzi Bizkaia","categoryId":"CR2","municipality":"Santurtzi","contentUrl_eu":"/contenidos/equipamiento/rrsosa_b_81/eu_def/index.shtml","targetId":"CD3CD0CD0","lng":"-3.025977","typeId":"TR1","lat":"43.325058"},{"classificationId":"RES","territoryId":"48","title":"RESIDENCIA URIZARTORRE (ADEMBI)","contentUrl_es":"/contenidos/equipamiento/rrsosa_b_82/es_def/index.shtml","address":"Grupo Torreurizar, 48012 Bilbao Bizkaia","categoryId":"CR2","municipality":"Bilbao","contentUrl_eu":"/contenidos/equipamiento/rrsosa_b_82/eu_def/index.shtml","targetId":"CD3CD0CD0","lng":"-2.935017","typeId":"TR1","lat":"43.252262"},{"classificationId":"RES","territoryId":"20","title":"Prestaci&oacute;n concertada","contentUrl_es":"/contenidos/equipamiento/rrsosa_b_83/es_def/index.shtml","address":"Gesalibar Auzoa, 14, 20509 Arrasate/Mondrag&oacute;n Gipuzkoa","categoryId":"CR3","municipality":"Arrasate/Mondrag&oacute;n","contentUrl_eu":"/contenidos/equipamiento/rrsosa_b_83/eu_def/index.shtml","targetId":"CD3CD6CD0","lng":"-2.52961","typeId":"TR10","lat":"43.06519"},{"classificationId":"RES","territoryId":"","title":"Prestaci&oacute;n concertada","contentUrl_es":"/contenidos/equipamiento/rrsosa_b_84/es_def/index.shtml","categoryId":"CR3","municipality":"Palencia","contentUrl_eu":"/contenidos/equipamiento/rrsosa_b_84/eu_def/index.shtml","targetId":"CD3CD6CD0","lng":"","typeId":"TR10","lat":""},{"classificationId":"RES","territoryId":"20","title":"Prestaci&oacute;n concertada","contentUrl_es":"/contenidos/equipamiento/rrsosa_b_85/es_def/index.shtml","address":"San Esteban Kalea, 47, 20170 Usurbil Gipuzkoa","categoryId":"CR3","municipality":"Usurbil","contentUrl_eu":"/contenidos/equipamiento/rrsosa_b_85/eu_def/index.shtml","targetId":"CD3CD6CD0","lng":"-2.0504878","typeId":"TR10","lat":"43.26903"},{"classificationId":"RES","territoryId":"48","title":"Unidades residenciales psiqui&aacute;tricas","contentUrl_es":"/contenidos/equipamiento/rrsosa_b_86/es_def/index.shtml","address":"Tonpoi Bidea, 2, 48370 Bermeo Bizkaia","categoryId":"CR2","municipality":"Bermeo","contentUrl_eu":"/contenidos/equipamiento/rrsosa_b_86/eu_def/index.shtml","targetId":"CD6CD0CD0","lng":"-2.7221029","typeId":"TR10","lat":"43.422043"},{"classificationId":"RES","territoryId":"48","title":"Unidades residenciales psiqui&aacute;tricas","contentUrl_es":"/contenidos/equipamiento/rrsosa_b_87/es_def/index.shtml","address":"Avenida Bilbo, 48250 Zaldibar Bizkaia","categoryId":"CR2","municipality":"Zaldibar","contentUrl_eu":"/contenidos/equipamiento/rrsosa_b_87/eu_def/index.shtml","targetId":"CD6CD0CD0","lng":"-2.5492666","typeId":"TR10","lat":"43.17032"},{"classificationId":"RES","territoryId":"48","title":"AUKERA","contentUrl_es":"/contenidos/equipamiento/rrsosa_b_88/es_def/index.shtml","address":"Estrada San Agust&iacute;n, 6, 48007 Bilbao Bizkaia","categoryId":"CR2","municipality":"Bilbao","contentUrl_eu":"/contenidos/equipamiento/rrsosa_b_88/eu_def/index.shtml","targetId":"CD2CD4CD0","lng":"-2.92288","typeId":"TR1","lat":"43.266"},{"classificationId":"RES","territoryId":"48","title":"BEATA MARIA JOSEFA","contentUrl_es":"/contenidos/equipamiento/rrsosa_b_89/es_def/index.shtml","address":"C/ Hernani, 4, 48003 Bilbao Bizkaia","categoryId":"CR2","municipality":"Bilbao","contentUrl_eu":"/contenidos/equipamiento/rrsosa_b_89/eu_def/index.shtml","targetId":"CD2CD4CD0","lng":"-2.9277987","typeId":"TR1","lat":"43.257275"},{"classificationId":"RES","territoryId":"48","title":"RESIDENCIA CARRANZA","contentUrl_es":"/contenidos/equipamiento/rrsosa_b_90/es_def/index.shtml","address":" Sosca&ntilde;o, 3, 48891 Karrantza Harana/Valle de Carranza Bizkaia","categoryId":"CR2","municipality":"Karrantza Harana/Valle de Carranza","contentUrl_eu":"/contenidos/equipamiento/rrsosa_b_90/eu_def/index.shtml","targetId":"CD2CD3CD6","lng":"-3.3632803","typeId":"TR1","lat":"43.22325"},{"classificationId":"RES","territoryId":"48","title":"RESIDENCIA URIBARREN","contentUrl_es":"/contenidos/equipamiento/rrsosa_b_91/es_def/index.shtml","address":"Avenida I&ntilde;igo Artieta, 2, 48280 Lekeitio Bizkaia","categoryId":"CR2","municipality":"Lekeitio","contentUrl_eu":"/contenidos/equipamiento/rrsosa_b_91/eu_def/index.shtml","targetId":"CD2CD3CD6","lng":"-2.5061593","typeId":"TR1","lat":"43.359283"},{"classificationId":"RES","territoryId":"48","title":"AVIFES","contentUrl_es":"/contenidos/equipamiento/rrsosa_b_92/es_def/index.shtml","address":"C/ San Isidro, 7, 48007 Bilbao Bizkaia","categoryId":"CR1","municipality":"Bilbao","contentUrl_eu":"/contenidos/equipamiento/rrsosa_b_92/eu_def/index.shtml","targetId":"CD6CD3CD0","lng":"-2.9129467","typeId":"TR3","lat":"43.260128"},{"classificationId":"RES","territoryId":"48","title":"AVIFES","contentUrl_es":"/contenidos/equipamiento/rrsosa_b_93/es_def/index.shtml","address":" Zurbarambarri, 39, 48007 Bilbao Bizkaia","categoryId":"CR1","municipality":"Bilbao","contentUrl_eu":"/contenidos/equipamiento/rrsosa_b_93/eu_def/index.shtml","targetId":"CD6CD3CD0","lng":"-2.9112928","typeId":"TR3","lat":"43.26499"},{"classificationId":"RES","territoryId":"48","title":"AVIFES","contentUrl_es":"/contenidos/equipamiento/rrsosa_b_94/es_def/index.shtml","address":"Avenida Lehendakari Aguirre, 156, 48015 Bilbao Bizkaia","categoryId":"CR1","municipality":"Bilbao","contentUrl_eu":"/contenidos/equipamiento/rrsosa_b_94/eu_def/index.shtml","targetId":"CD6CD3CD0","lng":"-2.9613903","typeId":"TR3","lat":"43.27934"},{"classificationId":"RES","territoryId":"48","title":"AVIFES","contentUrl_es":"/contenidos/equipamiento/rrsosa_b_95/es_def/index.shtml","address":"C/ Navarro Villoslada, 1, 48015 Bilbao Bizkaia","categoryId":"CR1","municipality":"Bilbao","contentUrl_eu":"/contenidos/equipamiento/rrsosa_b_95/eu_def/index.shtml","targetId":"CD6CD3CD0","lng":"-2.9619367","typeId":"TR3","lat":"43.276745"},{"classificationId":"RES","territoryId":"48","title":"AVIFES","contentUrl_es":"/contenidos/equipamiento/rrsosa_b_96/es_def/index.shtml","address":"C/ Independentzia, 1, 48940 Leioa Bizkaia","categoryId":"CR1","municipality":"Leioa","contentUrl_eu":"/contenidos/equipamiento/rrsosa_b_96/eu_def/index.shtml","targetId":"CD6CD3CD0","lng":"-2.9873333","typeId":"TR3","lat":"43.323116"},{"classificationId":"RES","territoryId":"48","title":"AVIFES","contentUrl_es":"/contenidos/equipamiento/rrsosa_b_97/es_def/index.shtml","address":"C/ Jos&eacute; Mar&iacute;a Ugarteburu, 22, 48007 Bilbao Bizkaia","categoryId":"CR1","municipality":"Bilbao","contentUrl_eu":"/contenidos/equipamiento/rrsosa_b_97/eu_def/index.shtml","targetId":"CD6CD3CD0","lng":"-2.9123106","typeId":"TR3","lat":"43.261517"},{"classificationId":"RES","territoryId":"48","title":"AVIFES","contentUrl_es":"/contenidos/equipamiento/rrsosa_b_98/es_def/index.shtml","address":"Caser&iacute;o Landaburu, 3, 48004 Bilbao Bizkaia","categoryId":"CR1","municipality":"Bilbao","contentUrl_eu":"/contenidos/equipamiento/rrsosa_b_98/eu_def/index.shtml","targetId":"CD6CD3CD0","lng":"-2.9149535","typeId":"TR3","lat":"43.252903"},{"classificationId":"RES","territoryId":"48","title":"AVIFES","contentUrl_es":"/contenidos/equipamiento/rrsosa_b_99/es_def/index.shtml","address":"C/ Tiboli, 23, 48007 Bilbao Bizkaia","categoryId":"CR1","municipality":"Bilbao","contentUrl_eu":"/contenidos/equipamiento/rrsosa_b_99/eu_def/index.shtml","targetId":"CD6CD3CD0","lng":"-2.925327","typeId":"TR3","lat":"43.26885"},{"classificationId":"RES","territoryId":"48","title":"AVIFES","contentUrl_es":"/contenidos/equipamiento/rrsosa_b_100/es_def/index.shtml","address":"C/ Islas Canarias, 87, 48015 Bilbao Bizkaia","categoryId":"CR1","municipality":"Bilbao","contentUrl_eu":"/contenidos/equipamiento/rrsosa_b_100/eu_def/index.shtml","targetId":"CD6CD3CD0","lng":"-2.9648206","typeId":"TR3","lat":"43.28073"},{"classificationId":"RES","territoryId":"48","title":"AVIFES","contentUrl_es":"/contenidos/equipamiento/rrsosa_b_101/es_def/index.shtml","address":"C/ Masustegi, 23, 48006 Bilbao Bizkaia","categoryId":"CR1","municipality":"Bilbao","contentUrl_eu":"/contenidos/equipamiento/rrsosa_b_101/eu_def/index.shtml","targetId":"CD6CD3CD0","lng":"-2.9138277","typeId":"TR3","lat":"43.257828"},{"classificationId":"RES","title":"AVIFES","contentUrl_es":"/contenidos/equipamiento/rrsosa_b_102/es_def/index.shtml","categoryId":"CR1","municipality":"","contentUrl_eu":"/contenidos/equipamiento/rrsosa_b_102/eu_def/index.shtml","targetId":"CD6CD3CD0","lng":"","typeId":"TR3","lat":""},{"classificationId":"RES","territoryId":"48","title":"AVIFES","contentUrl_es":"/contenidos/equipamiento/rrsosa_b_103/es_def/index.shtml","address":"C/ Sor Natividad Homedes, 14, 48980 Santurtzi Bizkaia","categoryId":"CR1","municipality":"Santurtzi","contentUrl_eu":"/contenidos/equipamiento/rrsosa_b_103/eu_def/index.shtml","targetId":"CD6CD3CD0","lng":"-3.0346386","typeId":"TR3","lat":"43.325535"},{"classificationId":"RES","territoryId":"48","title":"AVIFES","contentUrl_es":"/contenidos/equipamiento/rrsosa_b_104/es_def/index.shtml","address":"C/ Jenaro Oraa, 36, 48980 Santurtzi Bizkaia","categoryId":"CR1","municipality":"Santurtzi","contentUrl_eu":"/contenidos/equipamiento/rrsosa_b_104/eu_def/index.shtml","targetId":"CD6CD3CD0","lng":"-3.0292585","typeId":"TR3","lat":"43.32667"},{"classificationId":"RES","territoryId":"48","title":"BIDEXKA","contentUrl_es":"/contenidos/equipamiento/rrsosa_b_105/es_def/index.shtml","address":"Estrada San Agust&iacute;n, 6, 48007 Bilbao Bizkaia","categoryId":"CR2","municipality":"Bilbao","contentUrl_eu":"/contenidos/equipamiento/rrsosa_b_105/eu_def/index.shtml","targetId":"CD4CD3CD0","lng":"-2.92288","typeId":"TR3","lat":"43.266"},{"classificationId":"RES","territoryId":"48","title":"ZUBIETXE - Arginao","contentUrl_es":"/contenidos/equipamiento/rrsosa_b_106/es_def/index.shtml","address":"C/ Arginao, 8, 48003 Bilbao Bizkaia","categoryId":"CR2","municipality":"Bilbao","contentUrl_eu":"/contenidos/equipamiento/rrsosa_b_106/eu_def/index.shtml","targetId":"CD4CD3CD6","lng":"-2.9225118","typeId":"TR3","lat":"43.240574"},{"classificationId":"RES","territoryId":"48","title":"Viviendas con apoyo Bizitegi","contentUrl_es":"/contenidos/equipamiento/rrsosa_b_107/es_def/index.shtml","address":"C/ Langaran, 14, 48004 Bilbao Bizkaia","categoryId":"CR1","municipality":"Bilbao","contentUrl_eu":"/contenidos/equipamiento/rrsosa_b_107/eu_def/index.shtml","targetId":"CD3CD4CD6","lng":"-2.8980253","typeId":"TR3","lat":"43.258247"},{"classificationId":"RES","territoryId":"48","title":"ARGIA","contentUrl_es":"/contenidos/equipamiento/rrsosa_b_108/es_def/index.shtml","address":"C/ Bulevar de Beurko, 7, 48902 Barakaldo Bizkaia","categoryId":"CR1","municipality":"Barakaldo","contentUrl_eu":"/contenidos/equipamiento/rrsosa_b_108/eu_def/index.shtml","targetId":"CD6CD3CD0","lng":"-2.9957497","typeId":"TR3","lat":"43.299995"},{"classificationId":"RES","territoryId":"48","title":"ARGIA","contentUrl_es":"/contenidos/equipamiento/rrsosa_b_109/es_def/index.shtml","address":"C/ Elcano, 6, 48902 Barakaldo Bizkaia","categoryId":"CR1","municipality":"Barakaldo","contentUrl_eu":"/contenidos/equipamiento/rrsosa_b_109/eu_def/index.shtml","targetId":"CD6CD3CD0","lng":"-2.9877176","typeId":"TR3","lat":"43.296642"},{"classificationId":"RES","territoryId":"48","title":"ARGIA","contentUrl_es":"/contenidos/equipamiento/rrsosa_b_110/es_def/index.shtml","address":"Plaza Bide Onera, 8, 48901 Barakaldo Bizkaia","categoryId":"CR1","municipality":"Barakaldo","contentUrl_eu":"/contenidos/equipamiento/rrsosa_b_110/eu_def/index.shtml","targetId":"CD6CD3CD0","lng":"-2.9882948","typeId":"TR3","lat":"43.29507"},{"classificationId":"RES","territoryId":"48","title":"ARGIA","contentUrl_es":"/contenidos/equipamiento/rrsosa_b_111/es_def/index.shtml","address":"Avenida San Bartolome, 7, 48902 Barakaldo Bizkaia","categoryId":"CR1","municipality":"Barakaldo","contentUrl_eu":"/contenidos/equipamiento/rrsosa_b_111/eu_def/index.shtml","targetId":"CD6CD3CD0","lng":"-3.0039823","typeId":"TR3","lat":"43.29361"},{"classificationId":"RES","territoryId":"48","title":"ARGIA","contentUrl_es":"/contenidos/equipamiento/rrsosa_b_112/es_def/index.shtml","address":"Avenida San Bartolome, 7, 48902 Barakaldo Bizkaia","categoryId":"CR1","municipality":"Barakaldo","contentUrl_eu":"/contenidos/equipamiento/rrsosa_b_112/eu_def/index.shtml","targetId":"CD6CD3CD0","lng":"-3.0039823","typeId":"TR3","lat":"43.29361"},{"classificationId":"RES","territoryId":"48","title":"ARGIA","contentUrl_es":"/contenidos/equipamiento/rrsosa_b_113/es_def/index.shtml","address":"Avenida San Bartolome, 7, 48902 Barakaldo Bizkaia","categoryId":"CR1","municipality":"Barakaldo","contentUrl_eu":"/contenidos/equipamiento/rrsosa_b_113/eu_def/index.shtml","targetId":"CD6CD3CD0","lng":"-3.0039823","typeId":"TR3","lat":"43.29361"},{"classificationId":"RES","territoryId":"48","title":"ARGIA","contentUrl_es":"/contenidos/equipamiento/rrsosa_b_114/es_def/index.shtml","address":"C/ Tartanga, 8 G, 48950 Erandio Bizkaia","categoryId":"CR1","municipality":"Erandio","contentUrl_eu":"/contenidos/equipamiento/rrsosa_b_114/eu_def/index.shtml","targetId":"CD6CD3CD0","lng":"-2.9749131","typeId":"TR3","lat":"43.309086"},{"classificationId":"RES","territoryId":"48","title":"ARGIA","contentUrl_es":"/contenidos/equipamiento/rrsosa_b_115/es_def/index.shtml","address":"C/ Tartanga, 8 G, 48950 Erandio Bizkaia","categoryId":"CR1","municipality":"Erandio","contentUrl_eu":"/contenidos/equipamiento/rrsosa_b_115/eu_def/index.shtml","targetId":"CD6CD3CD0","lng":"-2.9749131","typeId":"TR3","lat":"43.309086"},{"classificationId":"RES","territoryId":"48","title":"ARGIA","contentUrl_es":"/contenidos/equipamiento/rrsosa_b_116/es_def/index.shtml","address":"C/ Tartanga, 8 G, 48950 Erandio Bizkaia","categoryId":"CR1","municipality":"Erandio","contentUrl_eu":"/contenidos/equipamiento/rrsosa_b_116/eu_def/index.shtml","targetId":"CD6CD3CD0","lng":"-2.9749131","typeId":"TR3","lat":"43.309086"},{"classificationId":"RES","territoryId":"48","title":"ARGIA","contentUrl_es":"/contenidos/equipamiento/rrsosa_b_117/es_def/index.shtml","address":"C/ Ibaibide, 1, 48930 Getxo Bizkaia","categoryId":"CR1","municipality":"Getxo","contentUrl_eu":"/contenidos/equipamiento/rrsosa_b_117/eu_def/index.shtml","targetId":"CD6CD3CD0","lng":"-3.0122955","typeId":"TR3","lat":"43.321796"},{"classificationId":"RES","territoryId":"48","title":"ARGIA","contentUrl_es":"/contenidos/equipamiento/rrsosa_b_118/es_def/index.shtml","address":"C/ Jolastokieta, 3, 48930 Getxo Bizkaia","categoryId":"CR1","municipality":"Getxo","contentUrl_eu":"/contenidos/equipamiento/rrsosa_b_118/eu_def/index.shtml","targetId":"CD6CD3CD0","lng":"-3.0135567","typeId":"TR3","lat":"43.32342"},{"classificationId":"RES","territoryId":"48","title":"ARGIA","contentUrl_es":"/contenidos/equipamiento/rrsosa_b_119/es_def/index.shtml","address":"C/ Bidearte, 2, 48930 Getxo Bizkaia","categoryId":"CR1","municipality":"Getxo","contentUrl_eu":"/contenidos/equipamiento/rrsosa_b_119/eu_def/index.shtml","targetId":"CD6CD3CD0","lng":"-3.0130208","typeId":"TR3","lat":"43.326267"},{"classificationId":"RES","territoryId":"48","title":"ARGIA","contentUrl_es":"/contenidos/equipamiento/rrsosa_b_120/es_def/index.shtml","address":"Avenida Askatasuna, 3, 48003 Bilbao Bizkaia","categoryId":"CR1","municipality":"Bilbao","contentUrl_eu":"/contenidos/equipamiento/rrsosa_b_120/eu_def/index.shtml","targetId":"CD6CD3CD0","lng":"-2.931912","typeId":"TR3","lat":"43.25111"},{"classificationId":"RES","territoryId":"48","title":"ARGIA","contentUrl_es":"/contenidos/equipamiento/rrsosa_b_121/es_def/index.shtml","address":"Avenida Askatasuna, 8, 48003 Bilbao Bizkaia","categoryId":"CR1","municipality":"Bilbao","contentUrl_eu":"/contenidos/equipamiento/rrsosa_b_121/eu_def/index.shtml","targetId":"CD6CD3CD0","lng":"-2.93177","typeId":"TR3","lat":"43.25079"},{"classificationId":"RES","territoryId":"48","title":"ARGIA","contentUrl_es":"/contenidos/equipamiento/rrsosa_b_122/es_def/index.shtml","address":"C/ Dr. Espinosa Oribe, 7, 48003 Bilbao Bizkaia","categoryId":"CR1","municipality":"Bilbao","contentUrl_eu":"/contenidos/equipamiento/rrsosa_b_122/eu_def/index.shtml","targetId":"CD6CD3CD0","lng":"-2.930143","typeId":"TR3","lat":"43.249554"},{"classificationId":"RES","territoryId":"48","title":"ARGIA","contentUrl_es":"/contenidos/equipamiento/rrsosa_b_123/es_def/index.shtml","address":"Alameda Urquijo, 53, 48011 Bilbao Bizkaia","categoryId":"CR1","municipality":"Bilbao","contentUrl_eu":"/contenidos/equipamiento/rrsosa_b_123/eu_def/index.shtml","targetId":"CD6CD3CD0","lng":"-2.938914","typeId":"TR3","lat":"43.260555"},{"classificationId":"RES","territoryId":"48","title":"ARGIA","contentUrl_es":"/contenidos/equipamiento/rrsosa_b_124/es_def/index.shtml","address":"C/ Genera Concha, 33, 48012 Bilbao Bizkaia","categoryId":"CR1","municipality":"Bilbao","contentUrl_eu":"/contenidos/equipamiento/rrsosa_b_124/eu_def/index.shtml","targetId":"CD6CD3CD0","lng":"-2.9358177","typeId":"TR3","lat":"43.256844"},{"classificationId":"RES","territoryId":"48","title":"ARGIA","contentUrl_es":"/contenidos/equipamiento/rrsosa_b_125/es_def/index.shtml","address":"C/ Juan de Garay, 2, 48003 Bilbao Bizkaia","categoryId":"CR1","municipality":"Bilbao","contentUrl_eu":"/contenidos/equipamiento/rrsosa_b_125/eu_def/index.shtml","targetId":"CD6CD3CD0","lng":"-2.93371","typeId":"TR3","lat":"43.25623"},{"classificationId":"RES","territoryId":"48","title":"ARGIA","contentUrl_es":"/contenidos/equipamiento/rrsosa_b_126/es_def/index.shtml","address":"Traves&iacute;a Las Escuelas, 1, 48006 Bilbao Bizkaia","categoryId":"CR1","municipality":"Bilbao","contentUrl_eu":"/contenidos/equipamiento/rrsosa_b_126/eu_def/index.shtml","targetId":"CD6CD3CD0","lng":"-2.9222345","typeId":"TR3","lat":"43.25477"},{"classificationId":"RES","territoryId":"48","title":"ARGIA","contentUrl_es":"/contenidos/equipamiento/rrsosa_b_127/es_def/index.shtml","address":"Avenida Juli&aacute;n Gaiarre, 22, 48004 Bilbao Bizkaia","categoryId":"CR1","municipality":"Bilbao","contentUrl_eu":"/contenidos/equipamiento/rrsosa_b_127/eu_def/index.shtml","targetId":"CD6CD3CD0","lng":"-2.9023845","typeId":"TR3","lat":"43.251236"},{"classificationId":"RES","territoryId":"48","title":"ARGIA","contentUrl_es":"/contenidos/equipamiento/rrsosa_b_128/es_def/index.shtml","address":"Avenida Juli&aacute;n Gaiarre, 22, 48004 Bilbao Bizkaia","categoryId":"CR1","municipality":"Bilbao","contentUrl_eu":"/contenidos/equipamiento/rrsosa_b_128/eu_def/index.shtml","targetId":"CD6CD3CD0","lng":"-2.9023845","typeId":"TR3","lat":"43.251236"},{"classificationId":"RES","territoryId":"48","title":"ARGIA","contentUrl_es":"/contenidos/equipamiento/rrsosa_b_129/es_def/index.shtml","address":"Avenida Juli&aacute;n Gaiarre, 96, 48004 Bilbao Bizkaia","categoryId":"CR1","municipality":"Bilbao","contentUrl_eu":"/contenidos/equipamiento/rrsosa_b_129/eu_def/index.shtml","targetId":"CD6CD3CD0","lng":"-2.8995492","typeId":"TR3","lat":"43.256462"},{"classificationId":"RES","territoryId":"48","title":"ARGIA","contentUrl_es":"/contenidos/equipamiento/rrsosa_b_130/es_def/index.shtml","address":"C/ Miembro de la Dya Fernando Jim&eacute;nez, 4, 48004 Bilbao Bizkaia","categoryId":"CR1","municipality":"Bilbao","contentUrl_eu":"/contenidos/equipamiento/rrsosa_b_130/eu_def/index.shtml","targetId":"CD6CD3CD0","lng":"-2.9062102","typeId":"TR3","lat":"43.25095"},{"classificationId":"RES","territoryId":"48","title":"ARGIA","contentUrl_es":"/contenidos/equipamiento/rrsosa_b_131/es_def/index.shtml","address":"Avenida Txomin Garat, 6, 48004 Bilbao Bizkaia","categoryId":"CR1","municipality":"Bilbao","contentUrl_eu":"/contenidos/equipamiento/rrsosa_b_131/eu_def/index.shtml","targetId":"CD6CD3CD0","lng":"-2.9090526","typeId":"TR3","lat":"43.25678"},{"classificationId":"RES","territoryId":"48","title":"ARGIA","contentUrl_es":"/contenidos/equipamiento/rrsosa_b_132/es_def/index.shtml","address":"C/ Miembro de la Dya Fernando Jim&eacute;nez, 2, 48004 Bilbao Bizkaia","categoryId":"CR1","municipality":"Bilbao","contentUrl_eu":"/contenidos/equipamiento/rrsosa_b_132/eu_def/index.shtml","targetId":"CD6CD3CD0","lng":"-2.9062603","typeId":"TR3","lat":"43.25101"},{"classificationId":"RES","territoryId":"48","title":"Hogar IZARRA","contentUrl_es":"/contenidos/equipamiento/rrsosa_b_133/es_def/index.shtml","address":"C/ Lozo&ntilde;o, 21, 48004 Bilbao Bizkaia","categoryId":"CR2","municipality":"Bilbao","contentUrl_eu":"/contenidos/equipamiento/rrsosa_b_133/eu_def/index.shtml","targetId":"CD6CD0CD0","lng":"-2.900149","typeId":"TR3","lat":"43.258503"},{"classificationId":"RES","territoryId":"48","title":"Hogar IZARRA","contentUrl_es":"/contenidos/equipamiento/rrsosa_b_134/es_def/index.shtml","address":"Traves&iacute;a Arbolantza, 3, 48004 Bilbao Bizkaia","categoryId":"CR2","municipality":"Bilbao","contentUrl_eu":"/contenidos/equipamiento/rrsosa_b_134/eu_def/index.shtml","targetId":"CD6CD0CD0","lng":"-2.89785","typeId":"TR3","lat":"43.26138"},{"classificationId":"RES","territoryId":"48","title":"Hogar IZARRA","contentUrl_es":"/contenidos/equipamiento/rrsosa_b_135/es_def/index.shtml","address":"C/ Langaran, 42, 48004 Bilbao Bizkaia","categoryId":"CR2","municipality":"Bilbao","contentUrl_eu":"/contenidos/equipamiento/rrsosa_b_135/eu_def/index.shtml","targetId":"CD6CD0CD0","lng":"-2.8977706","typeId":"TR3","lat":"43.26034"},{"classificationId":"RES","territoryId":"48","title":"Hogar IZARRA","contentUrl_es":"/contenidos/equipamiento/rrsosa_b_136/es_def/index.shtml","address":"Avenida Juli&aacute;n Gaiarre, 96, 48004 Bilbao Bizkaia","categoryId":"CR2","municipality":"Bilbao","contentUrl_eu":"/contenidos/equipamiento/rrsosa_b_136/eu_def/index.shtml","targetId":"CD6CD0CD0","lng":"-2.8995492","typeId":"TR3","lat":"43.256462"},{"classificationId":"RES","territoryId":"48","title":"Hogar IZARRA","contentUrl_es":"/contenidos/equipamiento/rrsosa_b_137/es_def/index.shtml","address":"Aperribai Bidea, 2, 48960 Galdakao Bizkaia","categoryId":"CR2","municipality":"Galdakao","contentUrl_eu":"/contenidos/equipamiento/rrsosa_b_137/eu_def/index.shtml","targetId":"CD6CD0CD0","lng":"-2.8605714","typeId":"TR3","lat":"43.233173"},{"classificationId":"PRO","territoryId":"48","title":"Protocolo de coordinaci&oacute;n sociosanitaria ","contentUrl_es":"/contenidos/equipamiento/rrsosa_b_138/es_def/index.shtml","categoryId":"CR1","municipality":"Bilbao","contentUrl_eu":"/contenidos/equipamiento/rrsosa_b_138/eu_def/index.shtml","targetId":"CD6CD0CD0","lng":"","typeId":"TPP1","lat":""},{"classificationId":"PRO","territoryId":"48","title":"Teleasistencia BETI ON ","contentUrl_es":"/contenidos/equipamiento/rrsosa_b_139/es_def/index.shtml","categoryId":"CR2","municipality":"","contentUrl_eu":"/contenidos/equipamiento/rrsosa_b_139/eu_def/index.shtml","targetId":"CD2CD3CD6","lng":"","typeId":"TPP5","lat":""},{"classificationId":"PRO","territoryId":"48","title":"Cobertura de atenci&oacute;n sanitaria a personas dependientes en residencias","contentUrl_es":"/contenidos/equipamiento/rrsosa_b_140/es_def/index.shtml","categoryId":"CR2","municipality":"","contentUrl_eu":"/contenidos/equipamiento/rrsosa_b_140/eu_def/index.shtml","targetId":"CD2CD0CD0","lng":"","typeId":"TPP7","lat":""},{"classificationId":"PRO","territoryId":"48","title":"Ayudas para la adaptaci&oacute;n de edificios y viviendas ","contentUrl_es":"/contenidos/equipamiento/rrsosa_b_141/es_def/index.shtml","address":"C/ Marqu&eacute;s de Valdespina, 1, 48260 Ermua Bizkaia","categoryId":"CR3","municipality":"Ermua","contentUrl_eu":"/contenidos/equipamiento/rrsosa_b_141/eu_def/index.shtml","targetId":"CD2CD3CD0","lng":"-2.5021565","typeId":"TPP10","lat":"43.186012"},{"classificationId":"PRO","territoryId":"48","title":"ERMUA MUGI","contentUrl_es":"/contenidos/equipamiento/rrsosa_b_142/es_def/index.shtml","address":"C/ Marqu&eacute;s de Valdespina, 1, 48260 Ermua Bizkaia","categoryId":"CR3","municipality":"Ermua","contentUrl_eu":"/contenidos/equipamiento/rrsosa_b_142/eu_def/index.shtml","targetId":"CD7CD0CD0","lng":"-2.5021565","typeId":"TPP10","lat":"43.186012"},{"classificationId":"PRO","territoryId":"48","title":"Pr&eacute;stamo de ayudas t&eacute;cnicas","contentUrl_es":"/contenidos/equipamiento/rrsosa_b_143/es_def/index.shtml","address":"C/ Marqu&eacute;s de Valdespina, 1, 48260 Ermua Bizkaia","categoryId":"CR3","municipality":"Ermua","contentUrl_eu":"/contenidos/equipamiento/rrsosa_b_143/eu_def/index.shtml","targetId":"CD2CD3CD0","lng":"-2.5021565","typeId":"TPP10","lat":"43.186012"},{"classificationId":"PRO","territoryId":"48","title":"Pr&eacute;stamo de ayudas t&eacute;cnicas","contentUrl_es":"/contenidos/equipamiento/rrsosa_b_145/es_def/index.shtml","categoryId":"CR3","municipality":"Bilbao","contentUrl_eu":"/contenidos/equipamiento/rrsosa_b_145/eu_def/index.shtml","targetId":"CD2CD3CD0","lng":"","typeId":"TPP10","lat":""},{"classificationId":"PRO","territoryId":"48","title":"Pr&eacute;stamo de ayudas t&eacute;cnicas","contentUrl_es":"/contenidos/equipamiento/rrsosa_b_146/es_def/index.shtml","address":"C/ Aita Elorriaga, 4, 48100 Mungia Bizkaia","categoryId":"CR3","municipality":"Mungia","contentUrl_eu":"/contenidos/equipamiento/rrsosa_b_146/eu_def/index.shtml","targetId":"CD2CD0CD0","lng":"-2.8457623","typeId":"TPP10","lat":"43.353428"},{"classificationId":"PRO","territoryId":"48","title":"Pr&eacute;stamo de ayudas t&eacute;cnicas ","contentUrl_es":"/contenidos/equipamiento/rrsosa_b_147/es_def/index.shtml","address":"Urgoiti, 57, 48480 Arrigorriaga Bizkaia","categoryId":"CR3","municipality":"Arrigorriaga","contentUrl_eu":"/contenidos/equipamiento/rrsosa_b_147/eu_def/index.shtml","targetId":"CD2CD0CD0","lng":"-2.8879442","typeId":"TPP10","lat":"43.20636"},{"classificationId":"PRO","territoryId":"48","title":"Apoyo a personas cuidadoras","contentUrl_es":"/contenidos/equipamiento/rrsosa_b_148/es_def/index.shtml","address":"Urgoiti, 57, 48480 Arrigorriaga Bizkaia","categoryId":"CR2","municipality":"Arrigorriaga","contentUrl_eu":"/contenidos/equipamiento/rrsosa_b_148/eu_def/index.shtml","targetId":"CD2CD0CD0","lng":"-2.8879442","typeId":"TPP10","lat":"43.20636"},{"classificationId":"PRO","territoryId":"48","title":"Programa de actividad f&iacute;sica para personas mayores","contentUrl_es":"/contenidos/equipamiento/rrsosa_b_149/es_def/index.shtml","address":"Urgoiti, 57, 48480 Arrigorriaga Bizkaia","categoryId":"CR3","municipality":"Arrigorriaga","contentUrl_eu":"/contenidos/equipamiento/rrsosa_b_149/eu_def/index.shtml","targetId":"CD7CD0CD0","lng":"-2.8879442","typeId":"TPP10","lat":"43.20636"},{"classificationId":"PRO","territoryId":"48","title":"Apoyo a personas cuidadoras","contentUrl_es":"/contenidos/equipamiento/rrsosa_b_150/es_def/index.shtml","address":"C/ Iturritza, 51, 48240 Berriz Bizkaia","categoryId":"CR3","municipality":"Berriz","contentUrl_eu":"/contenidos/equipamiento/rrsosa_b_150/eu_def/index.shtml","targetId":"CD2CD0CD0","lng":"-2.5775428","typeId":"TPP10","lat":"43.174847"},{"classificationId":"PRO","territoryId":"48","title":"Programa de actividad f&iacute;sica para personas mayores","contentUrl_es":"/contenidos/equipamiento/rrsosa_b_151/es_def/index.shtml","address":"C/ Iturritza, 51, 48240 Berriz Bizkaia","categoryId":"CR3","municipality":"Berriz","contentUrl_eu":"/contenidos/equipamiento/rrsosa_b_151/eu_def/index.shtml","targetId":"CD7CD0CD0","lng":"-2.5775428","typeId":"TPP10","lat":"43.174847"},{"classificationId":"PRO","territoryId":"48","title":"Apoyo a personas cuidadoras (ZAINDUZ)","contentUrl_es":"/contenidos/equipamiento/rrsosa_b_152/es_def/index.shtml","address":"Astola Auzoa, 26, 48220 Abadi&ntilde;o Bizkaia","categoryId":"CR3","municipality":"Abadi&ntilde;o","contentUrl_eu":"/contenidos/equipamiento/rrsosa_b_152/eu_def/index.shtml","targetId":"CD2CD0CD0","lng":"-2.6128547","typeId":"TPP10","lat":"43.161133"},{"classificationId":"PRO","territoryId":"48","title":"Programa de actividad f&iacute;sica para personas mayores","contentUrl_es":"/contenidos/equipamiento/rrsosa_b_153/es_def/index.shtml","address":"Astola Auzoa, 26, 48220 Abadi&ntilde;o Bizkaia","categoryId":"CR3","municipality":"Abadi&ntilde;o","contentUrl_eu":"/contenidos/equipamiento/rrsosa_b_153/eu_def/index.shtml","targetId":"CD7CD0CD0","lng":"-2.6128547","typeId":"TPP10","lat":"43.161133"},{"classificationId":"PRO","territoryId":"48","title":"Apoyo a personas cuidadoras","contentUrl_es":"/contenidos/equipamiento/rrsosa_b_154/es_def/index.shtml","address":"Herriaren Plaza, 48490 Ugao-Miraballes Bizkaia","categoryId":"CR3","municipality":"Ugao-Miraballes","contentUrl_eu":"/contenidos/equipamiento/rrsosa_b_154/eu_def/index.shtml","targetId":"CD2CD0CD0","lng":"-2.9015903","typeId":"TPP10","lat":"43.180122"},{"classificationId":"PRO","territoryId":"48","title":"Pr&eacute;stamo de ayudas t&eacute;cnicas ","contentUrl_es":"/contenidos/equipamiento/rrsosa_b_155/es_def/index.shtml","address":"Plaza Dr. Madinabeitia, 1, 48810 Alonsotegi Bizkaia","categoryId":"CR3","municipality":"Alonsotegi","contentUrl_eu":"/contenidos/equipamiento/rrsosa_b_155/eu_def/index.shtml","targetId":"CD2CD0CD0","lng":"-2.988271","typeId":"TPP10","lat":"43.245144"},{"classificationId":"PRO","territoryId":"48","title":"Apoyo a personas cuidadoras","contentUrl_es":"/contenidos/equipamiento/rrsosa_b_156/es_def/index.shtml","address":"Plaza Dr. Madinabeitia, 1, 48810 Alonsotegi Bizkaia","categoryId":"CR3","municipality":"Alonsotegi","contentUrl_eu":"/contenidos/equipamiento/rrsosa_b_156/eu_def/index.shtml","targetId":"CD2CD0CD0","lng":"-2.988271","typeId":"TPP10","lat":"43.245144"},{"classificationId":"PRO","territoryId":"48","title":"Pr&eacute;stamo de ayudas t&eacute;cnicas ","contentUrl_es":"/contenidos/equipamiento/rrsosa_b_157/es_def/index.shtml","address":" La Inmaculada, 15, 48850 Zalla Bizkaia","categoryId":"CR3","municipality":"Zalla","contentUrl_eu":"/contenidos/equipamiento/rrsosa_b_157/eu_def/index.shtml","targetId":"CD2CD0CD0","lng":"-3.1165326","typeId":"TPP10","lat":"43.20881"},{"classificationId":"PRO","territoryId":"48","title":"Apoyo a personas cuidadoras","contentUrl_es":"/contenidos/equipamiento/rrsosa_b_158/es_def/index.shtml","address":" La Inmaculada, 15, 48850 Zalla Bizkaia","categoryId":"CR3","municipality":"Zalla","contentUrl_eu":"/contenidos/equipamiento/rrsosa_b_158/eu_def/index.shtml","targetId":"CD2CD0CD0","lng":"-3.1165326","typeId":"TPP10","lat":"43.20881"},{"classificationId":"PRO","territoryId":"48","title":"Programa de actividad f&iacute;sica para personas mayores","contentUrl_es":"/contenidos/equipamiento/rrsosa_b_159/es_def/index.shtml","address":" La Inmaculada, 15, 48850 Zalla Bizkaia","categoryId":"CR3","municipality":"Zalla","contentUrl_eu":"/contenidos/equipamiento/rrsosa_b_159/eu_def/index.shtml","targetId":"CD7CD0CD0","lng":"-3.1165326","typeId":"TPP10","lat":"43.20881"},{"classificationId":"PRO","territoryId":"48","title":"Pr&eacute;stamo de ayudas t&eacute;cnicas ","contentUrl_es":"/contenidos/equipamiento/rrsosa_b_160/es_def/index.shtml","address":" Erdigune, 68, 48112 Maruri-Jatabe Bizkaia","categoryId":"CR3","municipality":"Maruri-Jatabe","contentUrl_eu":"/contenidos/equipamiento/rrsosa_b_160/eu_def/index.shtml","targetId":"CD2CD0CD0","lng":"-2.867251","typeId":"TPP10","lat":"43.379456"},{"classificationId":"PRO","territoryId":"48","title":"Apoyo a personas cuidadoras","contentUrl_es":"/contenidos/equipamiento/rrsosa_b_161/es_def/index.shtml","address":" Erdigune, 68, 48112 Maruri-Jatabe Bizkaia","categoryId":"CR3","municipality":"Maruri-Jatabe","contentUrl_eu":"/contenidos/equipamiento/rrsosa_b_161/eu_def/index.shtml","targetId":"CD2CD0CD0","lng":"-2.867251","typeId":"TPP10","lat":"43.379456"},{"classificationId":"PRO","territoryId":"48","title":"Pr&eacute;stamo de ayudas t&eacute;cnicas ","contentUrl_es":"/contenidos/equipamiento/rrsosa_b_162/es_def/index.shtml","address":"C/ Alhondiga, 6, 48300 Gernika-Lumo Bizkaia","categoryId":"CR3","municipality":"Gernika-Lumo","contentUrl_eu":"/contenidos/equipamiento/rrsosa_b_162/eu_def/index.shtml","targetId":"CD2CD0CD0","lng":"-2.6778288","typeId":"TPP10","lat":"43.312153"},{"classificationId":"PRO","territoryId":"48","title":"Apoyo a personas cuidadoras","contentUrl_es":"/contenidos/equipamiento/rrsosa_b_163/es_def/index.shtml","address":"C/ Alhondiga, 6, 48300 Gernika-Lumo Bizkaia","categoryId":"CR3","municipality":"Gernika-Lumo","contentUrl_eu":"/contenidos/equipamiento/rrsosa_b_163/eu_def/index.shtml","targetId":"CD2CD0CD0","lng":"-2.6778288","typeId":"TPP10","lat":"43.312153"},{"classificationId":"PRO","territoryId":"48","title":"Apoyo a personas cuidadoras","contentUrl_es":"/contenidos/equipamiento/rrsosa_b_164/es_def/index.shtml","address":"Plaza Primero de Mayo, 48530 Ortuella Bizkaia","categoryId":"CR3","municipality":"Ortuella","contentUrl_eu":"/contenidos/equipamiento/rrsosa_b_164/eu_def/index.shtml","targetId":"CD2CD0CD0","lng":"-3.0575457","typeId":"TPP10","lat":"43.310635"},{"classificationId":"PRO","territoryId":"48","title":"Programa de actividad f&iacute;sica para personas mayores","contentUrl_es":"/contenidos/equipamiento/rrsosa_b_165/es_def/index.shtml","address":"Plaza Primero de Mayo, 48530 Ortuella Bizkaia","categoryId":"CR3","municipality":"Ortuella","contentUrl_eu":"/contenidos/equipamiento/rrsosa_b_165/eu_def/index.shtml","targetId":"CD7CD0CD0","lng":"-3.0575457","typeId":"TPP10","lat":"43.310635"},{"classificationId":"PRO","territoryId":"48","title":"Pr&eacute;stamo de ayudas t&eacute;cnicas ","contentUrl_es":"/contenidos/equipamiento/rrsosa_b_166/es_def/index.shtml","address":"Krutzeko Plaza, 1, 48960 Galdakao Bizkaia","categoryId":"CR3","municipality":"Galdakao","contentUrl_eu":"/contenidos/equipamiento/rrsosa_b_166/eu_def/index.shtml","targetId":"CD2CD0CD0","lng":"-2.8397079","typeId":"TPP10","lat":"43.23123"},{"classificationId":"PRO","territoryId":"48","title":"Apoyo a personas cuidadoras","contentUrl_es":"/contenidos/equipamiento/rrsosa_b_167/es_def/index.shtml","address":"Krutzeko Plaza, 1, 48960 Galdakao Bizkaia","categoryId":"CR3","municipality":"Galdakao","contentUrl_eu":"/contenidos/equipamiento/rrsosa_b_167/eu_def/index.shtml","targetId":"CD2CD0CD0","lng":"-2.8397079","typeId":"TPP10","lat":"43.23123"},{"classificationId":"PRO","territoryId":"48","title":"Programa de actividad f&iacute;sica para personas mayores","contentUrl_es":"/contenidos/equipamiento/rrsosa_b_168/es_def/index.shtml","address":"Krutzeko Plaza, 1, 48960 Galdakao Bizkaia","categoryId":"CR3","municipality":"Galdakao","contentUrl_eu":"/contenidos/equipamiento/rrsosa_b_168/eu_def/index.shtml","targetId":"CD7CD0CD0","lng":"-2.8397079","typeId":"TPP10","lat":"43.23123"},{"classificationId":"PRO","territoryId":"48","title":"Pr&eacute;stamo de ayudas t&eacute;cnicas ","contentUrl_es":"/contenidos/equipamiento/rrsosa_b_169/es_def/index.shtml","address":"Plaza Txiki y Otaegi, 1, 48450 Etxebarri Bizkaia","categoryId":"CR3","municipality":"Etxebarri","contentUrl_eu":"/contenidos/equipamiento/rrsosa_b_169/eu_def/index.shtml","targetId":"CD2CD0CD0","lng":"-2.8921478","typeId":"TPP10","lat":"43.24626"},{"classificationId":"PRO","territoryId":"48","title":"Programa de actividad f&iacute;sica para personas mayores","contentUrl_es":"/contenidos/equipamiento/rrsosa_b_170/es_def/index.shtml","address":"Plaza Txiki y Otaegi, 1, 48450 Etxebarri Bizkaia","categoryId":"CR3","municipality":"Etxebarri","contentUrl_eu":"/contenidos/equipamiento/rrsosa_b_170/eu_def/index.shtml","targetId":"CD7CD0CD0","lng":"-2.8921478","typeId":"TPP10","lat":"43.24626"},{"classificationId":"PRO","territoryId":"48","title":"Pr&eacute;stamo de ayudas t&eacute;cnicas ","contentUrl_es":"/contenidos/equipamiento/rrsosa_b_171/es_def/index.shtml","address":"C/ Los Fueros, 1, 48992 Getxo Bizkaia","categoryId":"CR3","municipality":"Getxo","contentUrl_eu":"/contenidos/equipamiento/rrsosa_b_171/eu_def/index.shtml","targetId":"CD2CD0CD0","lng":"-3.0076158","typeId":"TPP10","lat":"43.34311"},{"classificationId":"PRO","territoryId":"48","title":"Apoyo a personas cuidadoras","contentUrl_es":"/contenidos/equipamiento/rrsosa_b_172/es_def/index.shtml","address":"C/ Los Fueros, 1, 48992 Getxo Bizkaia","categoryId":"CR3","municipality":"Getxo","contentUrl_eu":"/contenidos/equipamiento/rrsosa_b_172/eu_def/index.shtml","targetId":"CD2CD0CD0","lng":"-3.0076158","typeId":"TPP10","lat":"43.34311"},{"classificationId":"PRO","territoryId":"48","title":"Programa de actividad f&iacute;sica para personas mayores","contentUrl_es":"/contenidos/equipamiento/rrsosa_b_173/es_def/index.shtml","address":"C/ Los Fueros, 1, 48992 Getxo Bizkaia","categoryId":"CR3","municipality":"Getxo","contentUrl_eu":"/contenidos/equipamiento/rrsosa_b_173/eu_def/index.shtml","targetId":"CD7CD0CD0","lng":"-3.0076158","typeId":"TPP10","lat":"43.34311"},{"classificationId":"PRO","territoryId":"48","title":"Pr&eacute;stamo de ayudas t&eacute;cnicas ","contentUrl_es":"/contenidos/equipamiento/rrsosa_b_174/es_def/index.shtml","address":" La Cuesta, 1, 48508 Zierbena Bizkaia","categoryId":"CR3","municipality":"Zierbena","contentUrl_eu":"/contenidos/equipamiento/rrsosa_b_174/eu_def/index.shtml","targetId":"CD2CD0CD0","lng":"-3.0887852","typeId":"TPP10","lat":"43.345947"},{"classificationId":"PRO","territoryId":"48","title":"Apoyo a personas cuidadoras","contentUrl_es":"/contenidos/equipamiento/rrsosa_b_175/es_def/index.shtml","address":" La Cuesta, 1, 48508 Zierbena Bizkaia","categoryId":"CR3","municipality":"Zierbena","contentUrl_eu":"/contenidos/equipamiento/rrsosa_b_175/eu_def/index.shtml","targetId":"CD2CD0CD0","lng":"-3.0887852","typeId":"TPP10","lat":"43.345947"},{"classificationId":"PRO","territoryId":"48","title":"Programa de actividad f&iacute;sica para personas mayores","contentUrl_es":"/contenidos/equipamiento/rrsosa_b_176/es_def/index.shtml","address":" La Cuesta, 1, 48508 Zierbena Bizkaia","categoryId":"CR3","municipality":"Zierbena","contentUrl_eu":"/contenidos/equipamiento/rrsosa_b_176/eu_def/index.shtml","targetId":"CD7CD0CD0","lng":"-3.0887852","typeId":"TPP10","lat":"43.345947"},{"classificationId":"PRO","territoryId":"48","title":"Apoyo a personas cuidadoras","contentUrl_es":"/contenidos/equipamiento/rrsosa_b_177/es_def/index.shtml","address":" Elexalde, 1, 48940 Leioa Bizkaia","categoryId":"CR3","municipality":"Leioa","contentUrl_eu":"/contenidos/equipamiento/rrsosa_b_177/eu_def/index.shtml","targetId":"CD2CD0CD0","lng":"-3.0054638","typeId":"TPP10","lat":"43.328327"},{"classificationId":"PRO","territoryId":"48","title":"Programa de actividad f&iacute;sica para personas mayores","contentUrl_es":"/contenidos/equipamiento/rrsosa_b_178/es_def/index.shtml","address":" Elexalde, 1, 48940 Leioa Bizkaia","categoryId":"CR3","municipality":"Leioa","contentUrl_eu":"/contenidos/equipamiento/rrsosa_b_178/eu_def/index.shtml","targetId":"CD7CD0CD0","lng":"-3.0054638","typeId":"TPP10","lat":"43.328327"},{"classificationId":"PRO","territoryId":"48","title":"PAINNE ","contentUrl_es":"/contenidos/equipamiento/rrsosa_b_179/es_def/index.shtml","categoryId":"CR1","municipality":"Bilbao","contentUrl_eu":"/contenidos/equipamiento/rrsosa_b_179/eu_def/index.shtml","targetId":"CD5CD0CD0","lng":"","typeId":"TPP3","lat":""},{"classificationId":"PRO","territoryId":"48","title":"Programa sin hogar (TAC) ","contentUrl_es":"/contenidos/equipamiento/rrsosa_b_183/es_def/index.shtml","categoryId":"CR1","municipality":"Bilbao","contentUrl_eu":"/contenidos/equipamiento/rrsosa_b_183/eu_def/index.shtml","targetId":"CD3CD4CD6","lng":"","typeId":"TPP4","lat":""},{"classificationId":"PRO","territoryId":"48","title":"ETXEAN ONDO ","contentUrl_es":"/contenidos/equipamiento/rrsosa_b_184/es_def/index.shtml","address":"C/ Marqu&eacute;s de Valdespina, 1, 48260 Ermua Bizkaia","categoryId":"CR1","municipality":"Ermua","contentUrl_eu":"/contenidos/equipamiento/rrsosa_b_184/eu_def/index.shtml","targetId":"CD2CD0CD0","lng":"-2.5021565","typeId":"TPP1","lat":"43.186012"},{"classificationId":"PRO","territoryId":"48","title":"ADEMBI ","contentUrl_es":"/contenidos/equipamiento/rrsosa_b_185/es_def/index.shtml","address":"C/ Ibarrekolanda, 17, 48014 Bilbao Bizkaia","categoryId":"CR2","municipality":"Bilbao","contentUrl_eu":"/contenidos/equipamiento/rrsosa_b_185/eu_def/index.shtml","targetId":"CD2CD3CD0","lng":"-2.9541514","typeId":"TPP6","lat":"43.273525"},{"classificationId":"PRO","territoryId":"48","title":"APNABI","contentUrl_es":"/contenidos/equipamiento/rrsosa_b_186/es_def/index.shtml","categoryId":"CR2","municipality":"","contentUrl_eu":"/contenidos/equipamiento/rrsosa_b_186/eu_def/index.shtml","targetId":"CD2CD3CD0","lng":"","typeId":"TPP6","lat":""},{"classificationId":"PRO","territoryId":"48","title":"ASPACE ","contentUrl_es":"/contenidos/equipamiento/rrsosa_b_187/es_def/index.shtml","address":"C/ Barroeta Aldamar, 48001 Bilbao Bizkaia","categoryId":"CR2","municipality":"Bilbao","contentUrl_eu":"/contenidos/equipamiento/rrsosa_b_187/eu_def/index.shtml","targetId":"CD2CD3CD0","lng":"-2.9262936","typeId":"TPP6","lat":"43.26276"},{"classificationId":"PRO","territoryId":"48","title":"GIZAKIA ","contentUrl_es":"/contenidos/equipamiento/rrsosa_b_188/es_def/index.shtml","address":"Avenida Madariaga, 63, 48014 Bilbao Bizkaia","categoryId":"CR3","municipality":"Bilbao","contentUrl_eu":"/contenidos/equipamiento/rrsosa_b_188/eu_def/index.shtml","targetId":"CD1CD0CD0","lng":"-2.9540255","typeId":"TPP2","lat":"43.270634"},{"classificationId":"PRO","territoryId":"48","title":"Protocolo de actuaci&oacute;n sociosanitaria en Comarca Uribe dirigido a: personas mayores en su entorno habitual de residencia (centros residenciales)","contentUrl_es":"/contenidos/equipamiento/rrsosa_b_189/es_def/index.shtml","categoryId":"CR1","municipality":"","contentUrl_eu":"/contenidos/equipamiento/rrsosa_b_189/eu_def/index.shtml","targetId":"CD2","lng":"","typeId":"TPP1","lat":""},{"classificationId":"PRO","territoryId":"48","title":"Protocolo de coordinaci&oacute;n sociosanitaria de Comarca Uribe  dirigido a: persona mayor (= &oacute; &gt;65 a&ntilde;os) dependiente o en riesgo de dependencia, en su entorno habitual de residencia","contentUrl_es":"/contenidos/equipamiento/rrsosa_b_190/es_def/index.shtml","categoryId":"CR1","municipality":"","contentUrl_eu":"/contenidos/equipamiento/rrsosa_b_190/eu_def/index.shtml","targetId":"CD2","lng":"","typeId":"TPP1","lat":""},{"classificationId":"PRO","territoryId":"48","title":"Protocolo de coordinaci&oacute;n para equipos de atenci&oacute;n primaria sociosanitaria OSI Barrualde-Galdakao 2015","contentUrl_es":"/contenidos/equipamiento/rrsosa_b_191/es_def/index.shtml","categoryId":"CR1","municipality":"","contentUrl_eu":"/contenidos/equipamiento/rrsosa_b_191/eu_def/index.shtml","targetId":"CD2CD3CD4","lng":"","typeId":"TPP1","lat":""},{"classificationId":"PRO","territoryId":"48","title":"Protocolo de coordinaci&oacute;n de la OSI Barakaldo - Sestao para la atenci&oacute;n al Transtorno Mental Grave","contentUrl_es":"/contenidos/equipamiento/rrsosa_b_192/es_def/index.shtml","categoryId":"CR1","municipality":"","contentUrl_eu":"/contenidos/equipamiento/rrsosa_b_192/eu_def/index.shtml","targetId":"CD6CD3","lng":"","typeId":"TPP1","lat":""},{"classificationId":"PRO","territoryId":"48","title":"Protocolo de coordinaci&oacute;n sociosanitaria entre la OSI Bilbao-Basurto y el Ayuntamiento de Bilbao","contentUrl_es":"/contenidos/equipamiento/rrsosa_b_193/es_def/index.shtml","categoryId":"CR1","municipality":"","contentUrl_eu":"/contenidos/equipamiento/rrsosa_b_193/eu_def/index.shtml","targetId":"","lng":"","typeId":"TPP1","lat":""},{"classificationId":"PRO","territoryId":"48","title":"Cobertura de atenci&oacute;n social a personas dependientes en residencias","contentUrl_es":"/contenidos/equipamiento/rrsosa_b_194/es_def/index.shtml","categoryId":"CR2","municipality":"","contentUrl_eu":"/contenidos/equipamiento/rrsosa_b_194/eu_def/index.shtml","targetId":"CD2","lng":"","typeId":"TPP8","lat":""}]}